{
  "categories": {
    "historic-ruins-structures": {
      "count": 118,
      "name": "Historic / ruins / structures"
    },
    "industry": {
      "count": 31,
      "name": "Industry"
    },
    "interesting-things": {
      "count": 299,
      "name": "Interesting Things"
    },
    "museums-attractions": {
      "count": 511,
      "name": "Museums / attractions"
    },
    "nature": {
      "count": 61,
      "name": "Nature"
    },
    "not-open-to-public-but-visible": {
      "count": 56,
      "name": "Not open to public but visible"
    },
    "para-infrastructural-cultural": {
      "count": 90,
      "name": "Para-infrastructural / cultural"
    },
    "science": {
      "count": 21,
      "name": "Science"
    },
    "stays": {
      "count": 0,
      "name": "Stays"
    }
  },
  "places": {
    "-": {
      "category": "interesting-things",
      "coordinates": [
        25.043676,
        37.6409156
      ],
      "id": "-",
      "name": "\u039c\u03bf\u03c5\u03c3\u03b5\u03af\u03bf \u039c\u03b1\u03c1\u03bc\u03b1\u03c1\u03bf\u03c4\u03b5\u03c7\u03bd\u03af\u03b1\u03c2"
    },
    "-2": {
      "category": "interesting-things",
      "coordinates": [
        22.9559678,
        40.6354703
      ],
      "description": "Old technical museum. Lovely stuff.",
      "id": "-2",
      "name": "\u03a0\u03bf\u03bb\u03c5\u03c7\u03ce\u03c1\u03bf\u03c2 \u03a0\u03bf\u03bb\u03b9\u03c4\u03b9\u03c3\u03bc\u03bf\u03cd \"\u0399\u03c3\u03bb\u03b1\u03c7\u03b1\u03bd\u03ad\""
    },
    "-3": {
      "category": "not-open-to-public-but-visible",
      "coordinates": [
        50.1267026,
        19.1137973
      ],
      "description": "www.wired.com/dangerroom/2013/02/secret-drone-base-2/",
      "id": "-3",
      "name": "\u0645\u0637\u0627\u0631. \u0627\u0643 \u0627\u0644\u0645\u0644\u062d\u200e"
    },
    "228-peace-memorial-park": {
      "category": "interesting-things",
      "coordinates": [
        121.5149875,
        25.0418254
      ],
      "description": "has some old steam trains",
      "id": "228-peace-memorial-park",
      "name": "228 Peace Memorial Park"
    },
    "33-thomas-street-long-lines-building": {
      "category": "interesting-things",
      "coordinates": [
        -74.006057,
        40.7165999
      ],
      "description": "Windowless skyscraper containing major communication exchange points, and the likely location of an NSA intercept hub codenamed TITANPOINTE. https://en.m.wikipedia.org/wiki/33_Thomas_Street",
      "id": "33-thomas-street-long-lines-building",
      "name": "33 Thomas Street / Long Lines building"
    },
    "60-hudson-street": {
      "category": "interesting-things",
      "coordinates": [
        -74.0081748,
        40.7176405
      ],
      "description": "Formerly known as the Western Union Building. A major colocation center.",
      "id": "60-hudson-street",
      "name": "60 Hudson Street"
    },
    "abbey-pumping-station-museum": {
      "category": "museums-attractions",
      "coordinates": [
        -1.1306925,
        52.6549794
      ],
      "id": "abbey-pumping-station-museum",
      "name": "Abbey Pumping Station Museum"
    },
    "abbotsbury-swannery": {
      "category": "interesting-things",
      "coordinates": [
        -2.60228,
        50.655096
      ],
      "id": "abbotsbury-swannery",
      "name": "Abbotsbury Swannery"
    },
    "aberystwyth-cliff-railway": {
      "category": "interesting-things",
      "coordinates": [
        -4.083905,
        52.422387
      ],
      "id": "aberystwyth-cliff-railway",
      "name": "Aberystwyth Cliff Railway"
    },
    "acle-bridge": {
      "category": "historic-ruins-structures",
      "coordinates": [
        1.5676791,
        52.6489878
      ],
      "description": "Exceptionally low bridge, always good fun to watch boats going through",
      "id": "acle-bridge",
      "name": "Acle Bridge"
    },
    "aerial-tram-lower-terminal": {
      "category": "interesting-things",
      "coordinates": [
        -122.67101,
        45.499271
      ],
      "description": "A short but fun aerial tram, with good views. Unfortunately, there's not that much for a tourist to do on either end. Reasonably well connected to other transit, though.",
      "id": "aerial-tram-lower-terminal",
      "name": "Aerial tram (lower terminal)"
    },
    "aeroplume-flight-in-grotte-de-la-samalandre": {
      "category": "museums-attractions",
      "coordinates": [
        4.3423787,
        44.2554929
      ],
      "description": "Want to fly a one-person helium-filled airship inside a cave? You can.",
      "id": "aeroplume-flight-in-grotte-de-la-samalandre",
      "name": "Aeroplume flight in Grotte de la Samalandre"
    },
    "aerospace-bristol": {
      "category": "museums-attractions",
      "coordinates": [
        -2.5781971,
        51.5232224
      ],
      "description": "Aviation museum with lots of aircraft, other displays, and a Concorde.\n\nhttps://aerospacebristol.org/",
      "id": "aerospace-bristol",
      "name": "Aerospace Bristol"
    },
    "ailsa-craig": {
      "category": "industry",
      "coordinates": [
        -5.1109026,
        55.2510022
      ],
      "description": "Quarried for curling stones, among other things https://en.wikipedia.org/wiki/Ailsa_Craig#Curling_stones",
      "id": "ailsa-craig",
      "name": "Ailsa Craig"
    },
    "air-force-flight-test-museum": {
      "category": "museums-attractions",
      "coordinates": [
        -117.921526,
        34.912119
      ],
      "id": "air-force-flight-test-museum",
      "name": "Air Force Flight Test Museum"
    },
    "airbus-factory-tours": {
      "category": "museums-attractions",
      "coordinates": [
        1.3593774,
        43.6597154
      ],
      "id": "airbus-factory-tours",
      "name": "Airbus Factory Tours"
    },
    "airbus-uk-factory": {
      "category": "not-open-to-public-but-visible",
      "coordinates": [
        -2.9759988,
        53.1742612
      ],
      "description": "Large 'Beluga' planes come in to land here to bring/take parts of planes away - can be viewed from anywhere near the runway. Very occasional tours.",
      "id": "airbus-uk-factory",
      "name": "Airbus UK Factory"
    },
    "airmail-navigation-arrow": {
      "category": "historic-ruins-structures",
      "coordinates": [
        -115.8313412,
        35.3996298
      ],
      "id": "airmail-navigation-arrow",
      "name": "Airmail Navigation Arrow"
    },
    "airworld-aviation-museum": {
      "category": "museums-attractions",
      "coordinates": [
        -4.3377811,
        53.10016
      ],
      "description": "Located on the airfield of the former RAF Llandwrog, the museum has an impressive collection of aircraft and aviation memorabilia. The museum offers the opportunity to get close up to some historic aircraft. Set on an active airfield, the museum houses iconic machines such as the Hawker Hunter, D.H. Vampire, along with the only T2 BAe Harrier remaining worldwide.\n\nPart of the museum is devoted to the creation of the RAF Mountain Rescue Service, started here at RAF Llandwrog in 1942, whilst other sections describe the wartime airfields of North Wales",
      "id": "airworld-aviation-museum",
      "name": "Airworld Aviation Museum"
    },
    "alabama-hills": {
      "category": "nature",
      "coordinates": [
        -118.1,
        36.61
      ],
      "description": "Surreal-seeming rock formations. Beautiful and (in summer) often extremely hot.",
      "id": "alabama-hills",
      "name": "Alabama Hills"
    },
    "alameda-beach": {
      "category": "para-infrastructural-cultural",
      "coordinates": [
        -122.2505241,
        37.7542503
      ],
      "description": "Good though distant views of ships across the bay, the SF skyline, planes taking off from OAK, etc. Bring binoculars.",
      "id": "alameda-beach",
      "name": "Alameda Beach"
    },
    "alameda-county-sheriffs-bomb-disposal-range": {
      "category": "not-open-to-public-but-visible",
      "coordinates": [
        -121.8814944,
        37.7207361
      ],
      "description": "You know it from \u201cMythbusters\u201d.",
      "id": "alameda-county-sheriffs-bomb-disposal-range",
      "name": "Alameda County Sheriffs Bomb Disposal Range"
    },
    "alameda-point-antiques-faire": {
      "category": "para-infrastructural-cultural",
      "coordinates": [
        -122.3027315,
        37.7899798
      ],
      "description": "Better known as the Alameda Flea. A vast open-air market on the even vaster disused runway of a former naval airbase, with views across to the Port of Oakland. Held the first Sunday of each month, with occasional changes to avoid major holidays or for weather. There is an entry fee. Serious shoppers are wise to arrive early, but it's an amusing stroll at any time of day.",
      "id": "alameda-point-antiques-faire",
      "name": "Alameda Point Antiques Faire"
    },
    "alan-turing-memorial": {
      "category": "interesting-things",
      "coordinates": [
        -2.2365999,
        53.4769634
      ],
      "description": "Statue commemorating Alan Turing in the pleasant Sackville Street Gardens.",
      "id": "alan-turing-memorial",
      "name": "Alan Turing Memorial"
    },
    "alang-ship-scrap-yard": {
      "category": "industry",
      "coordinates": [
        72.1747225,
        21.3920556
      ],
      "description": "Not the only shipbreaking area in the world but perhaps the most famous.",
      "id": "alang-ship-scrap-yard",
      "name": "Alang Ship Scrap Yard"
    },
    "alaska-state-museum": {
      "category": "museums-attractions",
      "coordinates": [
        -134.4156397,
        58.2999241
      ],
      "id": "alaska-state-museum",
      "name": "Alaska State Museum"
    },
    "alcatraz-island": {
      "category": "museums-attractions",
      "coordinates": [
        -122.4230122,
        37.8266636
      ],
      "id": "alcatraz-island",
      "name": "Alcatraz Island"
    },
    "aldercrest-banyon-landslide-site": {
      "category": "interesting-things",
      "coordinates": [
        -122.8807902,
        46.1328124
      ],
      "description": "A very slow-moving landslide in 1998\u201399 that caused ~$100 million in damage. See https://en.wikipedia.org/wiki/Aldercrest-Banyon_landslide",
      "id": "aldercrest-banyon-landslide-site",
      "name": "Aldercrest-Banyon landslide site"
    },
    "alishan-forest-railway-chiayi-station": {
      "category": "interesting-things",
      "coordinates": [
        120.4411545,
        23.4791464
      ],
      "description": "The Alishan Forest Railway was originally constructed by occupying Japanese forces to facilitate logging; it's now a famously beautiful forest tour.",
      "id": "alishan-forest-railway-chiayi-station",
      "name": "Alishan Forest Railway (Chiayi Station)"
    },
    "altamont-pass-wind-farm": {
      "category": "interesting-things",
      "coordinates": [
        -121.6619128,
        37.7188118
      ],
      "description": "Notable for being one of the first windfarms in the US.",
      "id": "altamont-pass-wind-farm",
      "name": "Altamont Pass wind farm"
    },
    "alter-elbtunnel": {
      "category": "interesting-things",
      "coordinates": [
        9.9665878,
        53.5458861
      ],
      "description": "A tunnel under the river where vehicles enter massive elevators in order to get between tunnel and surface level.",
      "id": "alter-elbtunnel",
      "name": "Alter Elbtunnel"
    },
    "ambatovy-nickel-mine": {
      "category": "industry",
      "coordinates": [
        48.3086014,
        -18.8317208
      ],
      "description": "Notable for its size. Estimated to account for 25% of Madagascar's entire tax base. Waste fluids are piped 200 km to ponds at Toamasina, on the coast.",
      "id": "ambatovy-nickel-mine",
      "name": "Ambatovy (nickel mine)"
    },
    "amberley-museum": {
      "category": "museums-attractions",
      "coordinates": [
        -0.5395424,
        50.8973975
      ],
      "description": "Fascinating museum with exhibits including crafts, printing, buses, narrow gauge railway, telephones (including working telephone exchanges!) and more.\n\nhttps://www.amberleymuseum.co.uk/",
      "id": "amberley-museum",
      "name": "Amberley Museum"
    },
    "amgueddfa-lloyd-george-museum": {
      "category": "museums-attractions",
      "coordinates": [
        -4.2697102,
        52.921758
      ],
      "description": "Lloyd George was founder of the welfare state. This is an opportunity to dress in Victorian costume, to play with period toys and to write on slate\".",
      "id": "amgueddfa-lloyd-george-museum",
      "name": "Amgueddfa Lloyd George Museum"
    },
    "amoreiras-mother-of-water-reservoir": {
      "category": "interesting-things",
      "coordinates": [
        -9.1555849,
        38.7212149
      ],
      "description": "Recommend doing the tour of the Loreto Gallery, suggest booking in advance.",
      "id": "amoreiras-mother-of-water-reservoir",
      "name": "Amoreiras Mother of Water Reservoir"
    },
    "amphitheater-of-el-jem": {
      "category": "historic-ruins-structures",
      "coordinates": [
        10.7069003,
        35.2964821
      ],
      "description": "El Jem's Amphitheater and museum more than make up for the disappointment of Carthage, and it is well worth a special trip to see them.\n\nThe amphitheater is huge (3rd largest in the world), and at least has a little interpretation. You can climb all the way up to the highest levels and look down on the floor (and the town), and also explore the underground levels.\n\nHonestly, it's better than the Roman Colosseum in many ways. Beautiful photography opportunities abound.\n\nA 15 minute walk takes you to the museum, which is chock full of huge (room-sized) intact Roman mosaics. One of the best collections I've ever seen.\n\nWorth at least an hour, two plus if you include the museum. A half day in El Jem is not out of order.\n\nAdded by grajohnt",
      "id": "amphitheater-of-el-jem",
      "name": "Amphitheater of El Jem"
    },
    "amundsen-scott-south-pole-station": {
      "category": "interesting-things",
      "coordinates": [
        0.0,
        -85.1000005
      ],
      "id": "amundsen-scott-south-pole-station",
      "name": "Amundsen-Scott South Pole Station"
    },
    "anchor-church": {
      "category": "interesting-things",
      "coordinates": [
        -1.4980033,
        52.8414986
      ],
      "description": "A series of sandstone caves that have been carved into the rock. http://en.wikipedia.org/wiki/Anchor_Church",
      "id": "anchor-church",
      "name": "Anchor Church"
    },
    "anderton-boat-lift": {
      "category": "museums-attractions",
      "coordinates": [
        -2.5298668,
        53.2737307
      ],
      "description": "Restored boat lift, still used to lift canal boats from one canal to another. Museum and visitor's centre, plus canal boat trips (including up and down the lift).\n\nhttps://canalrivertrust.org.uk/places-to-visit/anderton-boat-lift-visitor-centre",
      "id": "anderton-boat-lift",
      "name": "Anderton Boat Lift"
    },
    "angels-flight-railway": {
      "category": "historic-ruins-structures",
      "coordinates": [
        -118.2506142,
        34.0516174
      ],
      "description": "Funicular railway moved from its original location, now connecting the subway, Grand Central Market, and the ritzy office district of Bunker Hill.",
      "id": "angels-flight-railway",
      "name": "Angels Flight Railway"
    },
    "anglesey-transport-museum-caf-tacla-taid": {
      "category": "museums-attractions",
      "coordinates": [
        -4.3480982,
        53.1737524
      ],
      "id": "anglesey-transport-museum-caf-tacla-taid",
      "name": "Anglesey Transport Museum & Caf\u00e9 - Tacla Taid"
    },
    "anita-street-municipal-housing-development": {
      "category": "interesting-things",
      "coordinates": [
        -2.2294585,
        53.4856547
      ],
      "description": "Late Victorian municipal housing development; was originally going to be named Sanitary Street, but the residents didn't like it and 'S' and 'ry' were dropped. When you are here, do also check out Victoria Square, the block at the eastern end of the street: the first example of municipal housing in Manchester.",
      "id": "anita-street-municipal-housing-development",
      "name": "Anita Street Municipal housing development"
    },
    "anti-aircraft-battery-blantyreferme": {
      "category": "interesting-things",
      "coordinates": [
        -4.1051736,
        55.8138651
      ],
      "description": "Remains of a gun battery from WW2.\n\nSee https://www.secretscotland.org.uk/index.php/Secrets/AABatteryBlantyreferme",
      "id": "anti-aircraft-battery-blantyreferme",
      "name": "Anti-Aircraft Battery Blantyreferme"
    },
    "anti-aircraft-gun-tower-7-l-tower-augarten": {
      "category": "historic-ruins-structures",
      "coordinates": [
        16.3784552,
        48.2278172
      ],
      "description": "Ed: This park has 2 WWII battlements. You can't go in (I think?) but nice enough to walk around from the outside.",
      "id": "anti-aircraft-gun-tower-7-l-tower-augarten",
      "name": "Anti-aircraft gun tower 7, L-Tower, Augarten"
    },
    "aop-visitor-center-amsterdam-ordnance-datum": {
      "category": "interesting-things",
      "coordinates": [
        4.9020497,
        52.3677286
      ],
      "description": "The original \"sea level\"",
      "id": "aop-visitor-center-amsterdam-ordnance-datum",
      "name": "AOP visitor center (Amsterdam Ordnance Datum)"
    },
    "ape-cave-interpretive-site": {
      "category": "nature",
      "coordinates": [
        -122.2116892,
        46.1079101
      ],
      "description": "World's best cross-country underground hike.",
      "id": "ape-cave-interpretive-site",
      "name": "Ape Cave Interpretive Site"
    },
    "approximate-impact-site-of-cneos-2014-01-08": {
      "category": "historic-ruins-structures",
      "coordinates": [
        147.6,
        -1.3
      ],
      "description": "An interstellar object: https://en.wikipedia.org/wiki/CNEOS_2014-01-08",
      "id": "approximate-impact-site-of-cneos-2014-01-08",
      "name": "Approximate impact site of CNEOS 2014-01-08"
    },
    "aquarius-reef-base": {
      "category": "science",
      "coordinates": [
        -80.5851108,
        24.9537747
      ],
      "description": "The only remaining underwater research base",
      "id": "aquarius-reef-base",
      "name": "Aquarius Reef Base"
    },
    "aqueduct-arcos-de-xochimilco": {
      "category": "interesting-things",
      "coordinates": [
        -96.7225304,
        17.0776021
      ],
      "id": "aqueduct-arcos-de-xochimilco",
      "name": "Aqueduct Arcos De Xochimilco"
    },
    "aqueduto-das-guas-livres": {
      "category": "interesting-things",
      "coordinates": [
        -9.1664815,
        38.7266673
      ],
      "id": "aqueduto-das-guas-livres",
      "name": "Aqueduto das \u00c1guas Livres"
    },
    "arabia-steamboat-museum": {
      "category": "museums-attractions",
      "coordinates": [
        -94.5813811,
        39.1094732
      ],
      "id": "arabia-steamboat-museum",
      "name": "Arabia Steamboat Museum"
    },
    "arboretum-dantsokay": {
      "category": "museums-attractions",
      "coordinates": [
        43.7554606,
        -23.4141473
      ],
      "id": "arboretum-dantsokay",
      "name": "Arboretum d'Antsokay"
    },
    "archaeological-museum-of-dion": {
      "category": "interesting-things",
      "coordinates": [
        22.4870441,
        40.1705992
      ],
      "description": "World's oldest pipe organ https://en.wikipedia.org/wiki/Hydraulis_of_Dion",
      "id": "archaeological-museum-of-dion",
      "name": "Archaeological Museum of Dion"
    },
    "arcosanti": {
      "category": "historic-ruins-structures",
      "coordinates": [
        -112.1005547,
        34.3425315
      ],
      "description": "Wildly ambitious but never fully-built, designed as an 'arcology' - a dense space for living/working (hello \"SimCity\" fans).  The construction is from concrete panels that are cast in dirt and then tilted/lifted into position, but in much wilder shapes than modern tilt-wall buildings.\n\nFull-on sci-fi vibes when you're there - open to the public year round, and has artists in residence.\n\nWorth a stop!\n\nhttps://en.wikipedia.org/wiki/Arcosanti\nhttps://www.arcosanti.org/\n\n(Added by JT)",
      "id": "arcosanti",
      "name": "Arcosanti"
    },
    "area-51": {
      "category": "not-open-to-public-but-visible",
      "coordinates": [
        -115.7930198,
        37.2430548
      ],
      "id": "area-51",
      "name": "Area 51"
    },
    "arecibo-observatory": {
      "category": "interesting-things",
      "coordinates": [
        -66.7528196,
        18.3464019
      ],
      "id": "arecibo-observatory",
      "name": "Arecibo Observatory"
    },
    "arizona-sonora-desert-museum": {
      "category": "museums-attractions",
      "coordinates": [
        -111.168174,
        32.244013
      ],
      "id": "arizona-sonora-desert-museum",
      "name": "Arizona-Sonora Desert Museum"
    },
    "armagh-observatory-and-planetarium": {
      "category": "museums-attractions",
      "coordinates": [
        -6.6482413,
        54.3519232
      ],
      "id": "armagh-observatory-and-planetarium",
      "name": "Armagh Observatory and Planetarium"
    },
    "army-flying-museum": {
      "category": "museums-attractions",
      "coordinates": [
        -1.5721239,
        51.1503584
      ],
      "id": "army-flying-museum",
      "name": "Army Flying Museum"
    },
    "arroyo-seco-confluence": {
      "category": "historic-ruins-structures",
      "coordinates": [
        -118.2259552,
        34.0794755
      ],
      "description": "Where the Los Angeles River and pretty much the entire LA basin watershed intersect. Totally concretized because of floods culminating in a disastrous one in 1938. Also the confluence of the 110 and 5 freeways and the Gold Line light rail track, and trains bound for Grand Central Station and the nearby cargo rail yards.",
      "id": "arroyo-seco-confluence",
      "name": "Arroyo Seco Confluence"
    },
    "astoria-megler-bridge": {
      "category": "interesting-things",
      "coordinates": [
        -123.8622099,
        46.2157711
      ],
      "description": "The longest continuous truss bridge in North America. Interesting for the unusual combination of being long (6.5 km or 4 mi) and, in one section (on the southern/Astoria end), having high clearance.",
      "id": "astoria-megler-bridge",
      "name": "Astoria-Megler Bridge"
    },
    "atacama-large-millimeter-array-alma-radio-telescope": {
      "category": "interesting-things",
      "coordinates": [
        -67.7538335,
        -23.0234342
      ],
      "id": "atacama-large-millimeter-array-alma-radio-telescope",
      "name": "Atacama Large Millimeter Array - ALMA Radio Telescope"
    },
    "atomic-museum": {
      "category": "museums-attractions",
      "coordinates": [
        -115.1483743,
        36.1141247
      ],
      "description": "Interesting local museum showcasing the local atomic historical connections to the local desert area",
      "id": "atomic-museum",
      "name": "Atomic Museum"
    },
    "atomium": {
      "category": "interesting-things",
      "coordinates": [
        4.3415547,
        50.8948787
      ],
      "id": "atomium",
      "name": "Atomium"
    },
    "avalon-marshes-centre": {
      "category": "museums-attractions",
      "coordinates": [
        -2.822577,
        51.169325
      ],
      "description": "http://avalonmarshes.org/explore/avalon-marshes-centre/\nIncludes history about the nearby Sweet Track, a road built in 3807 or 3806BC.",
      "id": "avalon-marshes-centre",
      "name": "Avalon Marshes Centre"
    },
    "avebury-stone-circles": {
      "category": "historic-ruins-structures",
      "coordinates": [
        -1.8548908,
        51.4289196
      ],
      "description": "Avebury henge and stone circles are one of the greatest marvels of prehistoric Britain. Built and much altered during the Neolithic period, roughly between 2850 BC and 2200 BC, the henge survives as a huge circular bank and ditch, encircling an area that includes part of Avebury village. Within the henge is the largest stone circle in Britain - originally of about 100 stones - which in turn encloses two smaller stone circles.\n\nSee https://www.english-heritage.org.uk/visit/places/avebury/",
      "id": "avebury-stone-circles",
      "name": "Avebury Stone Circles"
    },
    "avogs-crash-museum": {
      "category": "museums-attractions",
      "coordinates": [
        6.6140566,
        52.0141645
      ],
      "id": "avogs-crash-museum",
      "name": "Avog's Crash Museum"
    },
    "avoncroft-museum-of-historic-buildings": {
      "category": "museums-attractions",
      "coordinates": [
        -2.0710717,
        52.3142168
      ],
      "description": "Lots of historic buildings, but also in 1994 the Museum acquired the National Telephone Kiosk Collection. It contains 32 telephone booths, a stationary exchange and two mobile exchanges from the 20th and early 21st century.",
      "id": "avoncroft-museum-of-historic-buildings",
      "name": "Avoncroft Museum of Historic Buildings"
    },
    "avro-aircraft-heritage-museum": {
      "category": "museums-attractions",
      "coordinates": [
        -2.1522689,
        53.3349964
      ],
      "id": "avro-aircraft-heritage-museum",
      "name": "Avro Aircraft Heritage Museum"
    },
    "baarle-nassau-baarle-hertog": {
      "category": "interesting-things",
      "coordinates": [
        4.9295231,
        51.4451366
      ],
      "description": "Belgian / Dutch border-drawing chaos",
      "id": "baarle-nassau-baarle-hertog",
      "name": "Baarle-Nassau / Baarle-Hertog"
    },
    "babbacombe-cliff-railway": {
      "category": "interesting-things",
      "coordinates": [
        -3.5180191,
        50.4815294
      ],
      "id": "babbacombe-cliff-railway",
      "name": "Babbacombe Cliff Railway"
    },
    "baikonur-cosmodrome": {
      "category": "interesting-things",
      "coordinates": [
        63.3052427,
        45.9645851
      ],
      "id": "baikonur-cosmodrome",
      "name": "Baikonur Cosmodrome"
    },
    "bamboo-garden": {
      "category": "interesting-things",
      "coordinates": [
        -122.9941925,
        45.6563467
      ],
      "description": "With more than 300 species. Slightly surreal in a lowkey way.",
      "id": "bamboo-garden",
      "name": "Bamboo Garden"
    },
    "bangor-nuclear-arsenal": {
      "category": "not-open-to-public-but-visible",
      "coordinates": [
        -122.6991939,
        47.7187513
      ],
      "description": "As best can be discerned from unclassified sources, these bunkers probably house about 1/3 of the US nuclear arsenal.",
      "id": "bangor-nuclear-arsenal",
      "name": "Bangor nuclear arsenal"
    },
    "bank-of-england-museum": {
      "category": "museums-attractions",
      "coordinates": [
        -0.087613,
        51.514166
      ],
      "id": "bank-of-england-museum",
      "name": "Bank of England Museum"
    },
    "bank-of-japan-currency-museum": {
      "category": "museums-attractions",
      "coordinates": [
        139.7716826,
        35.6854615
      ],
      "id": "bank-of-japan-currency-museum",
      "name": "Bank of Japan Currency Museum"
    },
    "barcelona-supercomputing-center": {
      "category": "science",
      "coordinates": [
        2.1153769,
        41.3899442
      ],
      "description": "Visit the supercomputer in a church https://www.bsc.es/discover-bsc/visit-our-supercomputer",
      "id": "barcelona-supercomputing-center",
      "name": "Barcelona Supercomputing Center"
    },
    "barrow-hill-roundhouse-railway-centre": {
      "category": "museums-attractions",
      "coordinates": [
        -1.3820685,
        53.2744731
      ],
      "id": "barrow-hill-roundhouse-railway-centre",
      "name": "Barrow Hill Roundhouse Railway Centre"
    },
    "bartlow-hills": {
      "category": "historic-ruins-structures",
      "coordinates": [
        0.3136319,
        52.0796547
      ],
      "description": "Roman barrows cemetery, with the largest round barrows in Britain (up to 45ft tall).",
      "id": "bartlow-hills",
      "name": "Bartlow Hills"
    },
    "barton-house-railway": {
      "category": "interesting-things",
      "coordinates": [
        1.4084197,
        52.7075511
      ],
      "id": "barton-house-railway",
      "name": "Barton House Railway"
    },
    "basins-of-aghlabides": {
      "category": "historic-ruins-structures",
      "coordinates": [
        10.0970143,
        35.6865667
      ],
      "description": "An essential part of the water infrastructure of Kairouan, remarkable for their preservation and antiquity (date back to 862 AD).\n\nUnfortunately, they're hardly worth a visit. Stop by the Tourist Information Center (this pin) to buy a ticket that gets you into both here and the Great Mosque, pop up to the roof to get a photo, and leave. Spend your time at the Great Mosque instead.\n\nIt's also possible to walk around the site, but sadly the basins aren't that interesting to see and there's no interpretation.",
      "id": "basins-of-aghlabides",
      "name": "Basins of Aghlabides"
    },
    "bate-collection-of-musical-instruments": {
      "category": "museums-attractions",
      "coordinates": [
        -1.2558809,
        51.7486777
      ],
      "id": "bate-collection-of-musical-instruments",
      "name": "Bate Collection of Musical Instruments"
    },
    "battle-of-britain-bunker": {
      "category": "museums-attractions",
      "coordinates": [
        -0.4644559,
        51.5408513
      ],
      "id": "battle-of-britain-bunker",
      "name": "Battle of Britain Bunker"
    },
    "battle-of-britain-memorial-flight-visitors-centre": {
      "category": "museums-attractions",
      "coordinates": [
        -0.1795427,
        53.0970907
      ],
      "id": "battle-of-britain-memorial-flight-visitors-centre",
      "name": "Battle Of Britain Memorial Flight Visitors Centre"
    },
    "bawdsey-radar-transmitter-block": {
      "category": "museums-attractions",
      "coordinates": [
        1.4088201,
        51.9936896
      ],
      "id": "bawdsey-radar-transmitter-block",
      "name": "Bawdsey Radar Transmitter Block"
    },
    "bay-model-visitor-center": {
      "category": "museums-attractions",
      "coordinates": [
        -122.4956896,
        37.8634613
      ],
      "id": "bay-model-visitor-center",
      "name": "Bay Model Visitor Center"
    },
    "bayfront-park": {
      "category": "nature",
      "coordinates": [
        -122.3764138,
        37.6049946
      ],
      "description": "Good for plane spotting and, at low tide, maritime birds too.",
      "id": "bayfront-park",
      "name": "Bayfront Park"
    },
    "bears-ears-visitor-center": {
      "category": "nature",
      "coordinates": [
        -109.5691091,
        37.2811465
      ],
      "id": "bears-ears-visitor-center",
      "name": "Bears Ears Visitor Center"
    },
    "beauharnois-power-plant-interpretation-center": {
      "category": "museums-attractions",
      "coordinates": [
        -73.9010585,
        45.3128596
      ],
      "id": "beauharnois-power-plant-interpretation-center",
      "name": "Beauharnois Power Plant - Interpretation Center"
    },
    "beckton-sewage-treatment-works": {
      "category": "interesting-things",
      "coordinates": [
        0.0888008,
        51.5182595
      ],
      "description": "Often open during Open House",
      "id": "beckton-sewage-treatment-works",
      "name": "Beckton Sewage Treatment Works"
    },
    "beer-quarry-caves": {
      "category": "museums-attractions",
      "coordinates": [
        -3.113528,
        50.6988633
      ],
      "id": "beer-quarry-caves",
      "name": "Beer Quarry Caves"
    },
    "bekonscot-model-village-railway": {
      "category": "museums-attractions",
      "coordinates": [
        -0.6453315,
        51.613103
      ],
      "description": "Has a full size signal box, with a mini electrical lever frame",
      "id": "bekonscot-model-village-railway",
      "name": "Bekonscot Model Village & Railway"
    },
    "bembridge-lifeboat-station": {
      "category": "museums-attractions",
      "coordinates": [
        -1.0705399,
        50.6902554
      ],
      "description": "RNLI lifeboat station, with boat launched down a slipway. Station open regularly, and they allow visitors in to watch their practice launches once a week.\n\nhttps://bembridgelifeboat.org.uk/",
      "id": "bembridge-lifeboat-station",
      "name": "Bembridge Lifeboat Station"
    },
    "beneath-the-streets": {
      "category": "para-infrastructural-cultural",
      "coordinates": [
        -122.3340931,
        47.6028497
      ],
      "id": "beneath-the-streets",
      "name": "Beneath the Streets"
    },
    "bennerley-viaduct": {
      "category": "interesting-things",
      "coordinates": [
        -1.2978727,
        52.9895779
      ],
      "id": "bennerley-viaduct",
      "name": "Bennerley Viaduct"
    },
    "bentwaters-cold-war-museum": {
      "category": "museums-attractions",
      "coordinates": [
        1.4317658,
        52.1314364
      ],
      "id": "bentwaters-cold-war-museum",
      "name": "Bentwaters Cold War Museum"
    },
    "berkeley-pit-viewing-stand": {
      "category": "historic-ruins-structures",
      "coordinates": [
        -112.5183281,
        46.0112395
      ],
      "id": "berkeley-pit-viewing-stand",
      "name": "Berkeley Pit Viewing Stand"
    },
    "berlin-museum-of-medical-history-of-the-charit": {
      "category": "museums-attractions",
      "coordinates": [
        13.3745281,
        52.5260594
      ],
      "description": "Berlin's largest teaching hospital also has an excellent medical history museum. The museum houses an extensive spirit collection alongside exhibits on the medical treatments the hospital has developed over three centuries. Refreshingly it is open to the general public.",
      "id": "berlin-museum-of-medical-history-of-the-charit",
      "name": "Berlin Museum of Medical History of the Charit\u00e9"
    },
    "berry-head-lighthouse": {
      "category": "interesting-things",
      "coordinates": [
        -3.4835574,
        50.3995632
      ],
      "description": "The UK's shortest, but also highest lighthouse. The light is barely above ground level, but the lighthouse is one of the highest above sea level.\n\nSee https://en.wikipedia.org/wiki/Berry_Head_Lighthouse",
      "id": "berry-head-lighthouse",
      "name": "Berry Head Lighthouse"
    },
    "bethany-reservoir": {
      "category": "interesting-things",
      "coordinates": [
        -121.6177231,
        37.7824647
      ],
      "description": "Probably the easiest way to get close to the California Aqueduct at ground level (i.e., not just driving over it) from the inner Bay Area. $10 parking fee.",
      "id": "bethany-reservoir",
      "name": "Bethany Reservoir"
    },
    "big-pit-national-coal-museum": {
      "category": "museums-attractions",
      "coordinates": [
        -3.1045674,
        51.7725125
      ],
      "id": "big-pit-national-coal-museum",
      "name": "Big Pit National Coal Museum"
    },
    "big-trees-day-use-area": {
      "category": "interesting-things",
      "coordinates": [
        -123.9920425,
        40.3508287
      ],
      "description": "One of many, many good places to see the redwoods.",
      "id": "big-trees-day-use-area",
      "name": "Big Trees Day-use Area"
    },
    "bingley-five-rise-locks": {
      "category": "interesting-things",
      "coordinates": [
        -1.8379717,
        53.8558005
      ],
      "description": "Five Rise Locks - Canal walk/bike ride with a cafe at the top, bonus :) http://www.bingley.org.uk/around/locks.htm\n\n(you might want to push your bike up, and coming down could be hairy for those at the bottom)",
      "id": "bingley-five-rise-locks",
      "name": "Bingley Five Rise Locks"
    },
    "biosphere-2": {
      "category": "industry",
      "coordinates": [
        -110.8513627,
        32.5784467
      ],
      "id": "biosphere-2",
      "name": "Biosphere 2"
    },
    "birdsville-combined-geothermal-and-drinking-water-system": {
      "category": "interesting-things",
      "coordinates": [
        139.3524638,
        -25.8967119
      ],
      "id": "birdsville-combined-geothermal-and-drinking-water-system",
      "name": "Birdsville combined geothermal and drinking water system"
    },
    "birr-castle-demesne": {
      "category": "museums-attractions",
      "coordinates": [
        -7.9143201,
        53.0967043
      ],
      "description": "Historic castle with the world's largest telescope (as of the 1840s) in the grounds.\n\nSee https://birrcastle.com/telescope-astronomy/",
      "id": "birr-castle-demesne",
      "name": "Birr Castle Demesne"
    },
    "bisie-tin-mine": {
      "category": "industry",
      "coordinates": [
        27.7438125,
        -1.0385625
      ],
      "description": "One of the most important mines in the world in relation to its accessibility. Roughly 1% of global tin production comes from this one site.",
      "id": "bisie-tin-mine",
      "name": "Bisie Tin Mine"
    },
    "bixby-bridge-vista-point": {
      "category": "para-infrastructural-cultural",
      "coordinates": [
        -121.9024653,
        36.3725786
      ],
      "id": "bixby-bridge-vista-point",
      "name": "Bixby Bridge Vista Point"
    },
    "black-country-living-museum": {
      "category": "museums-attractions",
      "coordinates": [
        -2.0768652,
        52.5176548
      ],
      "description": "Experience sights, sounds, smells, and tastes of the Black Country as you explore shops, houses and industrial workshops rebuilt in our canalside village.",
      "id": "black-country-living-museum",
      "name": "Black Country Living Museum"
    },
    "black-panther-party-stoplight": {
      "category": "interesting-things",
      "coordinates": [
        -122.2739223,
        37.8392579
      ],
      "description": "See https://www.hmdb.org/m.asp?m=72395 or https://localwiki.org/oakland/55th_and_Market_Traffic_Light \u2013 a minor event, but important in the history of the BPP; it showed its ability to do infrastructural things, and contributed momentum that led toward Free Breakfast for Children and other major projects.",
      "id": "black-panther-party-stoplight",
      "name": "Black Panther Party stoplight"
    },
    "blackwells-bookshop": {
      "category": "para-infrastructural-cultural",
      "coordinates": [
        -1.2555315,
        51.7546524
      ],
      "description": "Famous bookshop in Oxford with a MASSIVE underground non-fiction section underneath the quad of one of the local colleges. Also the print/art branch opposite and the music shop next door.",
      "id": "blackwells-bookshop",
      "name": "Blackwell's Bookshop"
    },
    "bletchley-park": {
      "category": "museums-attractions",
      "coordinates": [
        -0.7406863,
        51.9976597
      ],
      "description": "WWII codebreaking site and museum.",
      "id": "bletchley-park",
      "name": "Bletchley Park"
    },
    "bloomfield-bridge": {
      "category": "interesting-things",
      "coordinates": [
        -93.274404,
        44.861685
      ],
      "description": "Footbridge across i-494 which was the subject of the historical investigation at https://tylervigen.com/the-mystery-of-the-bloomfield-bridge",
      "id": "bloomfield-bridge",
      "name": "Bloomfield Bridge"
    },
    "blue-john-cavern": {
      "category": "museums-attractions",
      "coordinates": [
        -1.8036044,
        53.3455317
      ],
      "id": "blue-john-cavern",
      "name": "Blue John Cavern"
    },
    "bodleian-library": {
      "category": "para-infrastructural-cultural",
      "coordinates": [
        -1.254042,
        51.754073
      ],
      "id": "bodleian-library",
      "name": "Bodleian Library"
    },
    "bohemian-grove": {
      "category": "not-open-to-public-but-visible",
      "coordinates": [
        -122.999721,
        38.4662425
      ],
      "id": "bohemian-grove",
      "name": "Bohemian Grove"
    },
    "bolton-steam-museum": {
      "category": "museums-attractions",
      "coordinates": [
        -2.4546717,
        53.5848946
      ],
      "id": "bolton-steam-museum",
      "name": "Bolton Steam Museum"
    },
    "bonneville-fish-hatchery": {
      "category": "museums-attractions",
      "coordinates": [
        -121.9565141,
        45.6337563
      ],
      "id": "bonneville-fish-hatchery",
      "name": "Bonneville Fish Hatchery"
    },
    "bonneville-lock-and-dam": {
      "category": "museums-attractions",
      "coordinates": [
        -121.9470748,
        45.6390762
      ],
      "description": "There are two visitors' centers, on either side of the river.",
      "id": "bonneville-lock-and-dam",
      "name": "Bonneville Lock and Dam"
    },
    "borax-visitor-center": {
      "category": "interesting-things",
      "coordinates": [
        -117.6872024,
        35.0299301
      ],
      "id": "borax-visitor-center",
      "name": "Borax Visitor Center"
    },
    "boros-foundation": {
      "category": "para-infrastructural-cultural",
      "coordinates": [
        13.3841109,
        52.5235298
      ],
      "description": "Art musem in an old bunker",
      "id": "boros-foundation",
      "name": "Boros Foundation"
    },
    "boscombe-down-aviation-collection": {
      "category": "museums-attractions",
      "coordinates": [
        -1.7854731,
        51.0999835
      ],
      "id": "boscombe-down-aviation-collection",
      "name": "Boscombe Down Aviation Collection"
    },
    "boston-lodge-works-ffestiniog-railway": {
      "category": "not-open-to-public-but-visible",
      "coordinates": [
        -4.1070031,
        52.9193957
      ],
      "description": "Nominally private, but often will let you look round if you ask nicely.",
      "id": "boston-lodge-works-ffestiniog-railway",
      "name": "Boston Lodge Works (Ffestiniog Railway)"
    },
    "bournemouth-aviation-musem": {
      "category": "museums-attractions",
      "coordinates": [
        -1.8426753,
        50.7759157
      ],
      "description": "Lots of aircraft and parts of aircraft, and you can get inside most of the cockpits! Also a bus, fire engine etc, plus general museum exhibits. Right next to the airport so you can see landings/take-offs.\n\nhttps://www.bamhurn.org/",
      "id": "bournemouth-aviation-musem",
      "name": "Bournemouth Aviation Musem"
    },
    "bradwell-power-plant-shell-beach": {
      "category": "interesting-things",
      "coordinates": [
        0.8982963,
        51.7442696
      ],
      "description": "Now decommissioned, this nuclear power station was built in the 1950s and quietly dominates the surrounding rural landscape. Walk eastwards from here, along a lovely shell covered beach, past WW2 pill boxes and sunken barges (to prevent coastal erosion) until you reach the atmospheric 7th century St Peter's chapel. Nerds will relish this surreal journey backwards in time, from modern nuclear science to ancient spritualism.",
      "id": "bradwell-power-plant-shell-beach",
      "name": "Bradwell Power Plant Shell Beach"
    },
    "braefoot-point": {
      "category": "interesting-things",
      "coordinates": [
        -3.3203257,
        56.0350435
      ],
      "description": "World War I Coastal Battery, with a nice view of the the oil terminal.",
      "id": "braefoot-point",
      "name": "Braefoot Point"
    },
    "brecon-mountain-railway": {
      "category": "interesting-things",
      "coordinates": [
        -3.3648902,
        51.7781891
      ],
      "id": "brecon-mountain-railway",
      "name": "Brecon Mountain Railway"
    },
    "bressingham-steam-museum-gardens": {
      "category": "museums-attractions",
      "coordinates": [
        1.0555403,
        52.3844508
      ],
      "description": "Includes Dad's Army museum!",
      "id": "bressingham-steam-museum-gardens",
      "name": "Bressingham Steam Museum & Gardens"
    },
    "bridge-of-balgownie": {
      "category": "historic-ruins-structures",
      "coordinates": [
        -2.0985536,
        57.1772839
      ],
      "description": "Built in 1320, rebuilt in 1605. Originally the main route north from Aberdeen. Superseded in 1830 by the downstream Bridge of Don. https://en.wikipedia.org/wiki/Brig_o%27_Balgownie",
      "id": "bridge-of-balgownie",
      "name": "Bridge of Balgownie"
    },
    "bridge-of-the-americas": {
      "category": "interesting-things",
      "coordinates": [
        -79.5644702,
        8.9434401
      ],
      "description": "This bridge's clearance defines the maximum height of Panamax ships.",
      "id": "bridge-of-the-americas",
      "name": "Bridge of the Americas"
    },
    "bridgnorth-cliff-railway-bottom-station": {
      "category": "interesting-things",
      "coordinates": [
        -2.4175461,
        52.5341549
      ],
      "id": "bridgnorth-cliff-railway-bottom-station",
      "name": "Bridgnorth Cliff Railway Bottom Station"
    },
    "brighton-palace-pier": {
      "category": "museums-attractions",
      "coordinates": [
        -0.136738,
        50.8168555
      ],
      "id": "brighton-palace-pier",
      "name": "Brighton Palace Pier"
    },
    "brighton-west-pier": {
      "category": "historic-ruins-structures",
      "coordinates": [
        -0.1519598,
        50.8190545
      ],
      "id": "brighton-west-pier",
      "name": "Brighton West Pier"
    },
    "britannia-mine-museum": {
      "category": "museums-attractions",
      "coordinates": [
        -123.2044606,
        49.6235711
      ],
      "description": "Copper mine museum with a mine train ride, taking you into a mine tunnel into the side of a mountain",
      "id": "britannia-mine-museum",
      "name": "Britannia Mine Museum"
    },
    "british-lawnmower-museum": {
      "category": "museums-attractions",
      "coordinates": [
        -3.0055321,
        53.6390403
      ],
      "id": "british-lawnmower-museum",
      "name": "British Lawnmower Museum"
    },
    "british-motor-museum": {
      "category": "museums-attractions",
      "coordinates": [
        -1.481111,
        52.1888991
      ],
      "id": "british-motor-museum",
      "name": "British Motor Museum"
    },
    "british-waterways-kerr-cup-pile-driving-competition-prize-length-of-piling-1959": {
      "category": "museums-attractions",
      "coordinates": [
        -0.33778,
        51.4991539
      ],
      "description": "Unclear exactly what the prize was for, but it is unusual, and this is a length of piling. https://www.blipfoto.com/entry/3137047",
      "id": "british-waterways-kerr-cup-pile-driving-competition-prize-length-of-piling-1959",
      "img": [
        "./data/images/252de429fa951ecc66644bfa511b5fb04b588529dd321afec760ef60e5111bab.png"
      ],
      "name": "British Waterways Kerr Cup Pile Driving Competition Prize Length of Piling 1959"
    },
    "brixham-battery": {
      "category": "museums-attractions",
      "coordinates": [
        -3.5214305,
        50.4010194
      ],
      "description": "Restored gun enplacements, with museum and tunnels etc.",
      "id": "brixham-battery",
      "name": "Brixham Battery"
    },
    "brooklands-museum": {
      "category": "museums-attractions",
      "coordinates": [
        -0.464345,
        51.354512
      ],
      "id": "brooklands-museum",
      "name": "Brooklands Museum"
    },
    "brukkaros-crater": {
      "category": "nature",
      "coordinates": [
        17.785443,
        -25.8741938
      ],
      "id": "brukkaros-crater",
      "name": "Brukkaros Crater"
    },
    "brunel-museum": {
      "category": "museums-attractions",
      "coordinates": [
        -0.052866,
        51.501591
      ],
      "id": "brunel-museum",
      "name": "Brunel Museum"
    },
    "bruny-radar": {
      "category": "science",
      "coordinates": [
        147.2162344,
        -43.3995667
      ],
      "description": "https://en.wikipedia.org/wiki/Super_Dual_Auroral_Radar_Network",
      "id": "bruny-radar",
      "name": "Bruny Radar"
    },
    "bt-madley-satellite-communications-centre": {
      "category": "not-open-to-public-but-visible",
      "coordinates": [
        -2.8415915,
        52.0316505
      ],
      "id": "bt-madley-satellite-communications-centre",
      "name": "BT Madley Satellite Communications Centre"
    },
    "buchstabenmuseum": {
      "category": "para-infrastructural-cultural",
      "coordinates": [
        13.3447599,
        52.519921
      ],
      "description": "Features old signs with unique typography",
      "id": "buchstabenmuseum",
      "name": "BUCHSTABENMUSEUM"
    },
    "buckinghamshire-railway-centre": {
      "category": "museums-attractions",
      "coordinates": [
        -0.928548,
        51.864755
      ],
      "id": "buckinghamshire-railway-centre",
      "name": "Buckinghamshire Railway Centre"
    },
    "buffalo-bayou-park-cistern": {
      "category": "museums-attractions",
      "coordinates": [
        -95.3760063,
        29.7624224
      ],
      "id": "buffalo-bayou-park-cistern",
      "name": "Buffalo Bayou Park Cistern"
    },
    "bull-run-powerhouse": {
      "category": "museums-attractions",
      "coordinates": [
        -122.2336269,
        45.4284766
      ],
      "id": "bull-run-powerhouse",
      "name": "Bull Run Powerhouse"
    },
    "burke-museum-of-natural-history-and-culture": {
      "category": "para-infrastructural-cultural",
      "coordinates": [
        -122.3115365,
        47.6604329
      ],
      "id": "burke-museum-of-natural-history-and-culture",
      "name": "Burke Museum of Natural History and Culture"
    },
    "bursledon-brickworks-museum": {
      "category": "museums-attractions",
      "coordinates": [
        -1.2877293,
        50.8837983
      ],
      "description": "Historic brickworks museum. Has multiple narrow gauge/miniature railways, and has steam open days where traction engines etc visit.\n\nhttps://thebrickworksmuseum.org/",
      "id": "bursledon-brickworks-museum",
      "name": "Bursledon Brickworks Museum"
    },
    "cairngorm-mountain-railway": {
      "category": "museums-attractions",
      "coordinates": [
        -3.6596451,
        57.1274484
      ],
      "description": "Funicular Railway to 1097m above sea level",
      "id": "cairngorm-mountain-railway",
      "name": "Cairngorm Mountain Railway"
    },
    "cajon-pass": {
      "category": "industry",
      "coordinates": [
        -117.44142,
        34.2445639
      ],
      "description": "Major chokepoint for freight to and from the LA area; attractions include excellent trainspotting. (Point placement is general \u2013 refer to local advice for best trainspotting areas.)",
      "id": "cajon-pass",
      "name": "Cajon Pass"
    },
    "california-academy-of-sciences": {
      "category": "para-infrastructural-cultural",
      "coordinates": [
        -122.4660947,
        37.7698646
      ],
      "id": "california-academy-of-sciences",
      "name": "California Academy of Sciences"
    },
    "callistoga-pioneer-cemetery": {
      "category": "interesting-things",
      "coordinates": [
        -122.5929289,
        38.579478
      ],
      "description": "Of no great historical or cultural importance, but extremely scenic \u2013 old gravestones, dappled light, etc.\n\nhttps://www.atlasobscura.com/places/calistoga-pioneer-cemetery",
      "id": "callistoga-pioneer-cemetery",
      "name": "Callistoga Pioneer Cemetery"
    },
    "calshot-spit": {
      "category": "interesting-things",
      "coordinates": [
        -1.3076932,
        50.8183867
      ],
      "description": "Activities centre includes some displays about the spit's use as a seaplane base. Also Calshot Castle next door, a beach, a good place to watch cruise ships and cargo ships, plus a radar tower with a National Coastwatch Institute watch station.",
      "id": "calshot-spit",
      "name": "Calshot Spit"
    },
    "caltech-owens-valley-radio-observatory": {
      "category": "science",
      "coordinates": [
        -118.2950897,
        37.2316967
      ],
      "id": "caltech-owens-valley-radio-observatory",
      "name": "Caltech Owens Valley Radio Observatory"
    },
    "camberwell-bunker": {
      "category": "not-open-to-public-but-visible",
      "coordinates": [
        -0.083435,
        51.4736098
      ],
      "description": "Camberwell Bunker Garden is open, but the bunker itself is closed. https://www.camberwellbunker.com/ \n3d model of the bunker: https://sketchfab.com/3d-models/southwark-borough-control-bunker-2973a1a9ee0e4ad29437d227bc93b262",
      "id": "camberwell-bunker",
      "name": "Camberwell bunker"
    },
    "cambridge-museum-of-technology": {
      "category": "museums-attractions",
      "coordinates": [
        0.1429009,
        52.2127338
      ],
      "description": "An old sewage pumphouse, with still-working steam pumps. Open on Sundays only, 2-5pm, and in winter, only the first one of the month. Occasional Steam days, plus other events. Small collection of ancient analytical equipment from Cambirdge Instruments, including an Electron Microanalyser- forerunner to the Electron Microscope. It's nerdy, it's ramshackle, it's clearly run with a lot of love and not much money. I'd call it a hidden gem, but you can see the shimmney from a long way away!",
      "id": "cambridge-museum-of-technology",
      "name": "Cambridge Museum of Technology"
    },
    "camera-obscura-world-of-illusions": {
      "category": "interesting-things",
      "coordinates": [
        -3.1956707,
        55.9489544
      ],
      "description": "19thC example of technical expertise and wizardry. The museum beneath is full of miscellaneous illusions and optical oddities: pinhole cameras, holograms, and mirror maze.",
      "id": "camera-obscura-world-of-illusions",
      "name": "Camera Obscura & World of Illusions"
    },
    "canadian-railway-museum": {
      "category": "museums-attractions",
      "coordinates": [
        -73.5647593,
        45.375353
      ],
      "id": "canadian-railway-museum",
      "name": "Canadian Railway Museum"
    },
    "canyon-de-chelly": {
      "category": "nature",
      "coordinates": [
        -109.4418501,
        36.1564038
      ],
      "description": "The various Canyon de Chelly overlooks are among the most beautiful vistas that this author has ever seen. A must-see if you're on Highway 191.\n\nDe Chelly rhymes with \u201cthe play\u201d.",
      "id": "canyon-de-chelly",
      "name": "Canyon de Chelly"
    },
    "cape-canaveral-space-force-station": {
      "category": "interesting-things",
      "coordinates": [
        -80.5768594,
        28.4923776
      ],
      "id": "cape-canaveral-space-force-station",
      "name": "Cape Canaveral Space Force Station"
    },
    "cape-flattery-observation-deck": {
      "category": "para-infrastructural-cultural",
      "coordinates": [
        -124.7266347,
        48.385908
      ],
      "id": "cape-flattery-observation-deck",
      "name": "Cape Flattery Observation Deck"
    },
    "cape-florida-lighthouse": {
      "category": "museums-attractions",
      "coordinates": [
        -80.1559585,
        25.6665986
      ],
      "id": "cape-florida-lighthouse",
      "name": "Cape Florida Lighthouse"
    },
    "carthage-in-general": {
      "category": "historic-ruins-structures",
      "coordinates": [
        10.3334693,
        36.8548214
      ],
      "description": "The ruins of Carthage are generally a disappointment, even if you're a Roman history buff. For the most part, they're in poor condition and poorly curated/explained. The various ruins are also pretty spread out. Still walkable, but you end up spending a lot of time getting from one slightly disappointing ruin to another.\n\nThe Carthage Museum is currently closed, and isn't scheduled to reopen until 2025 (?).\n\nYou probably still *have* to go see Carthage if you're in Tunis, so save yourself some time and hit the Baths of Antoninus. There's at least a bit of explaination there, and it's fun to scramble around a bit in the ruins.\n\nAdded by grajohnt",
      "id": "carthage-in-general",
      "name": "Carthage (in general)"
    },
    "carting-lane-sewer-gas-destructor-lamp": {
      "category": "museums-attractions",
      "coordinates": [
        -0.1210497,
        51.5100773
      ],
      "description": "The last sewer gas destructor lamp https://www.historic-uk.com/HistoryMagazine/DestinationsUK/Farting-Lane/",
      "id": "carting-lane-sewer-gas-destructor-lamp",
      "img": [
        "./data/images/3c73b56acf03a4ca712ad2bfc5d31a5a1c188bc90cec3bb50e4fd4950961225e.png",
        "./data/images/cd48f0925fc43af7ccd69df25e59e54cf2116368dbac8694aa4f2dff2ae2929b.png"
      ],
      "name": "Carting Lane Sewer Gas Destructor Lamp"
    },
    "casa-da-msica": {
      "category": "museums-attractions",
      "coordinates": [
        -8.630696,
        41.158881
      ],
      "description": "Ed: Contemporary music hall. Can join regular tours. Has a 'cyber' room.",
      "id": "casa-da-msica",
      "img": [
        "./data/images/43000efad24fb32628eec8ee54ba04dcd99963b9f934d0cf7afe662eb5cfca97.png",
        "./data/images/282efe9354576ce9d4b3dc2657c9cc65d6eb7e7e00e8540b7cb4b9d883201448.png",
        "./data/images/b85b7ddc351507aebdaadbfffcd063a20e700c207f9790d3a4d2557321a9f077.png",
        "./data/images/67b0a1ad42d2966a3755744339a6cda562ffea0b7df7cf4daf67c24933ebae7e.png"
      ],
      "name": "Casa da M\u00fasica"
    },
    "casa-grande-ruins-national-monument": {
      "category": "historic-ruins-structures",
      "coordinates": [
        -111.5325468,
        32.9974176
      ],
      "id": "casa-grande-ruins-national-monument",
      "name": "Casa Grande Ruins National Monument"
    },
    "castle-hill": {
      "category": "historic-ruins-structures",
      "coordinates": [
        -1.770899,
        53.623043
      ],
      "description": "https://en.wikipedia.org/wiki/Castle_Hill,_Huddersfield",
      "id": "castle-hill",
      "name": "Castle Hill"
    },
    "catalyst": {
      "category": "museums-attractions",
      "coordinates": [
        -2.7336783,
        53.3519578
      ],
      "description": "Interactive children's science centre",
      "id": "catalyst",
      "name": "Catalyst"
    },
    "center-of-science-and-industry-cosi": {
      "category": "museums-attractions",
      "coordinates": [
        -83.0070197,
        39.9598362
      ],
      "description": "Amazing museum of science & industry",
      "id": "center-of-science-and-industry-cosi",
      "name": "Center of Science and Industry (COSI)"
    },
    "central-tramway": {
      "category": "interesting-things",
      "coordinates": [
        -0.3984357,
        54.2810136
      ],
      "id": "central-tramway",
      "name": "Central Tramway"
    },
    "centre-for-alternative-technology": {
      "category": "museums-attractions",
      "coordinates": [
        -3.8393963,
        52.6237376
      ],
      "id": "centre-for-alternative-technology",
      "name": "Centre for Alternative Technology"
    },
    "centre-of-the-cell": {
      "category": "museums-attractions",
      "coordinates": [
        -0.0616548,
        51.5167978
      ],
      "description": "Science education centre, with science events etc in a real-life scientific laboratory. \nhttps://www.centreofthecell.org/",
      "id": "centre-of-the-cell",
      "name": "Centre of the Cell"
    },
    "ch-sugar": {
      "category": "not-open-to-public-but-visible",
      "coordinates": [
        -122.2227478,
        38.0573501
      ],
      "description": "Historically important sugar refinery. A striking sight as you cross the Vallejo bridge. No factory tour so far as I know. https://en.wikipedia.org/wiki/California_and_Hawaiian_Sugar_Company",
      "id": "ch-sugar",
      "name": "C&H Sugar"
    },
    "chabot-space-science-center": {
      "category": "museums-attractions",
      "coordinates": [
        -122.1807217,
        37.8187474
      ],
      "id": "chabot-space-science-center",
      "name": "Chabot Space & Science Center"
    },
    "charleston-tea-garden": {
      "category": "interesting-things",
      "coordinates": [
        -80.1853589,
        32.6181669
      ],
      "description": "One of very few tea operations in North America.",
      "id": "charleston-tea-garden",
      "name": "Charleston Tea Garden"
    },
    "chiba-urban-monorail": {
      "category": "interesting-things",
      "coordinates": [
        140.1133591,
        35.6131339
      ],
      "description": "One of the few suspended monorails. You can transfer here at Chiba station from the major intercity rail lines",
      "id": "chiba-urban-monorail",
      "name": "Chiba Urban Monorail"
    },
    "chicago-river-boat-architecture-tours": {
      "category": "historic-ruins-structures",
      "coordinates": [
        -87.6153955,
        41.890551
      ],
      "description": "Travel on the Chicago River to view the many cool buildings, and hear about how Chicago reversed the river",
      "id": "chicago-river-boat-architecture-tours",
      "name": "Chicago River Boat Architecture Tours"
    },
    "chicxulub-crater": {
      "category": "nature",
      "coordinates": [
        -89.5166667,
        21.4
      ],
      "description": "Approximate centerpoint of the crater of the impact that killed the non-avian dinosaurs. I don't know exactly how it got the name of Chicxulub \u2013 clearly there was some initial estimate that that town was near the crater centerpoint, but I don't know who made that first guess or precisely when.",
      "id": "chicxulub-crater",
      "name": "Chicxulub crater"
    },
    "chislehurst-caves": {
      "category": "museums-attractions",
      "coordinates": [
        0.058052,
        51.4073553
      ],
      "description": "Huge network of tunnels used as an air raid shelter in WWII, entertainingly cheesy tours, great fun.",
      "id": "chislehurst-caves",
      "name": "Chislehurst Caves"
    },
    "churchill-war-rooms": {
      "category": "museums-attractions",
      "coordinates": [
        -0.1293572,
        51.5021585
      ],
      "id": "churchill-war-rooms",
      "name": "Churchill War Rooms"
    },
    "cidade-da-cultura-de-galicia": {
      "category": "museums-attractions",
      "coordinates": [
        -8.5277057,
        42.870396
      ],
      "description": "Ed: Large complex with a museum, library, and various sculptures.",
      "id": "cidade-da-cultura-de-galicia",
      "img": [
        "./data/images/51b45d63d2526a64e8a267a74997fa7816fd34e13e7421177d13faddbc10da39.png",
        "./data/images/fa268ece908214bc48470b90a7ac27e1a7114284f7713e2f3f2511494533822a.png",
        "./data/images/3f80624296d03d4cbdb9205a8272970672cdf58937e353a052e2abafdd03556c.png"
      ],
      "name": "Cidade da Cultura de Galicia"
    },
    "cisterns-of-la-malga": {
      "category": "historic-ruins-structures",
      "coordinates": [
        10.3187431,
        36.859336
      ],
      "description": "Far and away the most 'infrastructure-y' part of the ruins of Carthage, these are interesting for their size and scope, if not their beauty.\n\nThe cisterns are in pretty good shape, with one that has clearly undergone some modern restoration work. However, the aqueduct itself is very much in ruins, and it takes some imagination to see what it might have looked like.\n\nThere is no interpretation/explanation here, so read up in advance!\n\nWorth a quick stop, but that's about it.",
      "id": "cisterns-of-la-malga",
      "name": "Cisterns of La Malga"
    },
    "city-museum": {
      "category": "museums-attractions",
      "coordinates": [
        -90.2006976,
        38.6336745
      ],
      "description": "Beloved family-oriented interactive museum.",
      "id": "city-museum",
      "name": "City Museum"
    },
    "city-of-norwich-aviation-museum": {
      "category": "museums-attractions",
      "coordinates": [
        1.2757992,
        52.68028
      ],
      "id": "city-of-norwich-aviation-museum",
      "name": "City of Norwich Aviation Museum"
    },
    "claymills-victorian-pumping-station": {
      "category": "museums-attractions",
      "coordinates": [
        -1.6114302,
        52.8298757
      ],
      "id": "claymills-victorian-pumping-station",
      "name": "Claymills Victorian Pumping Station"
    },
    "cle-elum-telephone-museum": {
      "category": "museums-attractions",
      "coordinates": [
        -120.9350954,
        47.19463
      ],
      "id": "cle-elum-telephone-museum",
      "name": "Cle Elum Telephone Museum"
    },
    "cliff-palace": {
      "category": "historic-ruins-structures",
      "coordinates": [
        -108.473217,
        37.1669064
      ],
      "id": "cliff-palace",
      "name": "Cliff Palace"
    },
    "cliffe-fort": {
      "category": "historic-ruins-structures",
      "coordinates": [
        0.4557958,
        51.4635997
      ],
      "id": "cliffe-fort",
      "name": "Cliffe Fort"
    },
    "cliffords-tower-york": {
      "category": "museums-attractions",
      "coordinates": [
        -1.07994,
        53.95582
      ],
      "id": "cliffords-tower-york",
      "name": "Clifford's Tower, York"
    },
    "clifton-observatory": {
      "category": "museums-attractions",
      "coordinates": [
        -2.6264819,
        51.4566295
      ],
      "description": "Old 18thC windmill converted out with camera obscura in 1828; beneath it lie caves that stretch down untill emerging on a viewing platform half way up the avon gorge.",
      "id": "clifton-observatory",
      "name": "Clifton Observatory"
    },
    "clifton-suspension-bridge": {
      "category": "museums-attractions",
      "coordinates": [
        -2.6278553,
        51.4549089
      ],
      "id": "clifton-suspension-bridge",
      "name": "Clifton Suspension Bridge"
    },
    "cn-tower": {
      "category": "historic-ruins-structures",
      "coordinates": [
        -79.3870568,
        43.6425662
      ],
      "id": "cn-tower",
      "name": "CN Tower"
    },
    "cockatoo-island": {
      "category": "interesting-things",
      "coordinates": [
        151.1716362,
        -33.8470558
      ],
      "description": "An abandoned ex-prison and dockyard. Now used as an unusal camp-site and for art-installation projects. Worth visitng just for the tunnels through solid rock.",
      "id": "cockatoo-island",
      "name": "Cockatoo Island"
    },
    "columbia-gorge-discovery-center-museum": {
      "category": "museums-attractions",
      "coordinates": [
        -121.2104392,
        45.6544055
      ],
      "id": "columbia-gorge-discovery-center-museum",
      "name": "Columbia Gorge Discovery Center & Museum"
    },
    "columbia-river-maritime-museum": {
      "category": "museums-attractions",
      "coordinates": [
        -123.8235949,
        46.1898725
      ],
      "description": "The Columbia River is one of the world's most economically important, but also has one of the most dangerous entrances. This museum is almost entirely historical, and covers interesting things like the lifeboat service. Well worth the stop.",
      "id": "columbia-river-maritime-museum",
      "name": "Columbia River Maritime Museum"
    },
    "computer-history-museum": {
      "category": "museums-attractions",
      "coordinates": [
        -122.077409,
        37.4142744
      ],
      "id": "computer-history-museum",
      "name": "Computer History Museum"
    },
    "congress-avenue-bridge": {
      "category": "interesting-things",
      "coordinates": [
        -97.7451779,
        30.2617346
      ],
      "description": "Known for its bats: https://www.austincityguide.com/listings/congress-bridge-bats",
      "id": "congress-avenue-bridge",
      "name": "Congress Avenue Bridge"
    },
    "connections-museum": {
      "category": "museums-attractions",
      "coordinates": [
        -122.3231874,
        47.5408566
      ],
      "id": "connections-museum",
      "name": "Connections Museum"
    },
    "corinth-canal": {
      "category": "interesting-things",
      "coordinates": [
        22.9945051,
        37.9272014
      ],
      "id": "corinth-canal",
      "name": "Corinth Canal"
    },
    "corning-museum-of-glass": {
      "category": "museums-attractions",
      "coordinates": [
        -77.0541959,
        42.1498045
      ],
      "id": "corning-museum-of-glass",
      "name": "Corning Museum of Glass"
    },
    "corrour-station-house": {
      "category": "interesting-things",
      "coordinates": [
        -4.6903719,
        56.7603782
      ],
      "description": "A station in Rannoch Moor, only accessible by rail or 20 mile walk. There is accommodation in the old signal box. https://www.corrour.co.uk/station-house/",
      "id": "corrour-station-house",
      "name": "Corrour Station House"
    },
    "coventry-transport-museum": {
      "category": "museums-attractions",
      "coordinates": [
        -1.5092179,
        52.41082
      ],
      "id": "coventry-transport-museum",
      "name": "Coventry Transport Museum"
    },
    "cragside-house-national-trust": {
      "category": "museums-attractions",
      "coordinates": [
        -1.8940549,
        55.3172346
      ],
      "description": "Britain's \"original smart home\", lit by hydro-electric power.\n\nThe massive country house of Victorian ubernerd, Lord Armstrong, founder of Newcastle University, inventor of the hydraulic accumulator, builder of warships. First house lit by hydro power, full of gadgets, lovely woody walks and a huge adventure playground. Best National Trust House Ever.",
      "id": "cragside-house-national-trust",
      "name": "Cragside House - National Trust"
    },
    "crater-lake": {
      "category": "nature",
      "coordinates": [
        -122.119383,
        42.9370052
      ],
      "description": "Rightly famous for its spectacular, panoramic view of an extremely deep volcanic lake at elevation. Well worth the trip if you're in the area.",
      "id": "crater-lake",
      "name": "Crater Lake"
    },
    "craters-of-the-moon": {
      "category": "nature",
      "coordinates": [
        -113.5617332,
        43.4620618
      ],
      "id": "craters-of-the-moon",
      "name": "Craters of the Moon"
    },
    "crescent-dunes": {
      "category": "industry",
      "coordinates": [
        -117.3644791,
        38.2399102
      ],
      "description": "Large concentrated solar plant",
      "id": "crescent-dunes",
      "name": "Crescent Dunes"
    },
    "crescent-wood-tunnel-north-portal": {
      "category": "historic-ruins-structures",
      "coordinates": [
        -0.0685834,
        51.4345274
      ],
      "description": "Part of the old Crystal Palace High Level railway line. Now closed to public as bats are living there.",
      "id": "crescent-wood-tunnel-north-portal",
      "name": "Crescent Wood Tunnel (North portal)"
    },
    "creswell-crags": {
      "category": "interesting-things",
      "coordinates": [
        -1.1935292,
        53.2634906
      ],
      "description": "Cave art from nearly 13,000 years ago, the only cave art from that period in the UK.",
      "id": "creswell-crags",
      "name": "Creswell Crags"
    },
    "crich-tramway-village": {
      "category": "interesting-things",
      "coordinates": [
        -1.4859543,
        53.0904893
      ],
      "id": "crich-tramway-village",
      "name": "Crich Tramway Village"
    },
    "cromford-mills": {
      "category": "museums-attractions",
      "coordinates": [
        -1.5558966,
        53.1090805
      ],
      "description": "World's first successful water-powered cotton mill.",
      "id": "cromford-mills",
      "name": "Cromford Mills"
    },
    "croome-court": {
      "category": "museums-attractions",
      "coordinates": [
        -2.1695916,
        52.0999623
      ],
      "description": "National Trust property with historic house and gardens, BUT also includes museum of RAF Croome where lots of radar systems developed nearby at RSRE Malvern were tested.",
      "id": "croome-court",
      "name": "Croome Court"
    },
    "cross-channel-electricity-cable-landing-point": {
      "category": "interesting-things",
      "coordinates": [
        1.1947516,
        51.0827545
      ],
      "description": "There isn't much to see here - other than the door - but if you're here anyway maybe you want to say you've been here...",
      "id": "cross-channel-electricity-cable-landing-point",
      "name": "Cross Channel electricity cable landing point"
    },
    "cross-club": {
      "category": "interesting-things",
      "coordinates": [
        14.4432664,
        50.1082127
      ],
      "id": "cross-club",
      "name": "Cross Club"
    },
    "crossness-pumping-station": {
      "category": "museums-attractions",
      "coordinates": [
        0.1381945,
        51.5088757
      ],
      "id": "crossness-pumping-station",
      "name": "Crossness Pumping Station"
    },
    "croydon-airport-visitor-centre": {
      "category": "museums-attractions",
      "coordinates": [
        -0.1172222,
        51.3563889
      ],
      "description": "Visitor centre for former airport in Croydon. Open first Sunday of the month. https://www.historiccroydonairport.org.uk/",
      "id": "croydon-airport-visitor-centre",
      "name": "Croydon Airport Visitor Centre"
    },
    "cruachan-power-station": {
      "category": "museums-attractions",
      "coordinates": [
        -5.1134552,
        56.3938331
      ],
      "description": "Pumped storage hydro-electric power station with tours of the underground works.",
      "id": "cruachan-power-station",
      "name": "Cruachan Power Station"
    },
    "csiro-parkes-observatory": {
      "category": "interesting-things",
      "coordinates": [
        148.2621459,
        -32.9986038
      ],
      "id": "csiro-parkes-observatory",
      "name": "CSIRO - Parkes Observatory"
    },
    "cuckfield-royal-observer-corps-bunker": {
      "category": "interesting-things",
      "coordinates": [
        -0.1411485,
        51.0040372
      ],
      "description": "https://www.facebook.com/Cuckfieldnuclearbunker/ for details of regular open days",
      "id": "cuckfield-royal-observer-corps-bunker",
      "name": "Cuckfield Royal Observer Corps Bunker"
    },
    "cup-noodles-museum-yokohama": {
      "category": "museums-attractions",
      "coordinates": [
        139.6388669,
        35.4554755
      ],
      "id": "cup-noodles-museum-yokohama",
      "name": "Cup Noodles Museum Yokohama"
    },
    "curved-elevator-at-the-old-town-hall": {
      "category": "historic-ruins-structures",
      "coordinates": [
        9.7359649,
        52.3712983
      ],
      "description": "The elevator to the viewing gallery is curved, but not evenly; it's been rebuilt and reshaped a couple of times.",
      "id": "curved-elevator-at-the-old-town-hall",
      "name": "Curved elevator at the Old Town Hall"
    },
    "cypress-freeway-memorial-park": {
      "category": "para-infrastructural-cultural",
      "coordinates": [
        -122.2921431,
        37.8104377
      ],
      "description": "The Loma Prieta earthquake (1989) partially collapsed a two-level expressway that ran here. The local community, mostly impoverished Black people whose neighborhood the freeway had split, acted heroically, improvising ladders and other tools, pulling trapped drivers out of the wreckage, and administering first aid while EMTs were overloaded. This is one of very few memorials to peacetime community heroism in the world.\n\nThe route of the expressway is now Mandela Parkway, a more modest street with a long linear park in the median.",
      "id": "cypress-freeway-memorial-park",
      "name": "Cypress Freeway Memorial Park"
    },
    "dakin-building": {
      "category": "interesting-things",
      "coordinates": [
        -122.3842918,
        37.6766827
      ],
      "description": "One of the more interesting nondescript office buildings. Its Wikipedia article's headings include \u201cRole during Glasnost\u201d and \u201cThe Star Wars saga\u201d: https://en.wikipedia.org/wiki/Dakin_Building",
      "id": "dakin-building",
      "name": "Dakin Building"
    },
    "dallas-pedestrian-network": {
      "category": "interesting-things",
      "coordinates": [
        -96.7982391,
        32.7830012
      ],
      "description": "A slightly abandoned network of underground and overground tunnels linking many buildings in Downtown Dallas. Cool to explore and have a creepy walk around...",
      "id": "dallas-pedestrian-network",
      "name": "Dallas Pedestrian Network"
    },
    "danube-tower": {
      "category": "historic-ruins-structures",
      "coordinates": [
        16.4098739,
        48.2403447
      ],
      "id": "danube-tower",
      "name": "Danube Tower"
    },
    "datong-district": {
      "category": "para-infrastructural-cultural",
      "coordinates": [
        121.5113064,
        25.0627243
      ],
      "description": "for old shopping and market streets",
      "id": "datong-district",
      "name": "Datong District"
    },
    "dawlish-sea-wall-and-railway": {
      "category": "interesting-things",
      "coordinates": [
        -3.4643689,
        50.5805934
      ],
      "id": "dawlish-sea-wall-and-railway",
      "name": "Dawlish Sea Wall and Railway"
    },
    "de-havilland-aircraft-museum": {
      "category": "museums-attractions",
      "coordinates": [
        -0.271759,
        51.7109104
      ],
      "id": "de-havilland-aircraft-museum",
      "name": "De Havilland Aircraft Museum"
    },
    "de-young-museum": {
      "category": "museums-attractions",
      "coordinates": [
        -122.4686755,
        37.771469
      ],
      "description": "Copper-clad art museum, with free access to the viewing tower",
      "id": "de-young-museum",
      "name": "de Young Museum"
    },
    "death-valley-national-park-information-area": {
      "category": "nature",
      "coordinates": [
        -116.9779619,
        36.7241912
      ],
      "id": "death-valley-national-park-information-area",
      "name": "Death Valley National Park Information Area"
    },
    "deception-pass": {
      "category": "museums-attractions",
      "coordinates": [
        -122.6446632,
        48.4072099
      ],
      "description": "Spectacular bridge over a pass with very strong tidal currents. The best angle is from the beach to its SW.",
      "id": "deception-pass",
      "name": "Deception Pass"
    },
    "deer-island-wastewater-treatment-plant": {
      "category": "not-open-to-public-but-visible",
      "coordinates": [
        -70.9578286,
        42.3513861
      ],
      "description": "Sewage treatment plant. Runs occasional tours. Cool view from the egg digestors!",
      "id": "deer-island-wastewater-treatment-plant",
      "name": "Deer Island Wastewater Treatment Plant"
    },
    "deer-moat-pedestrian-tunnel": {
      "category": "interesting-things",
      "coordinates": [
        14.3984202,
        50.0912704
      ],
      "description": "Ed: Oval pedestrian tunnel as mentioned on Atlas Obscura.\n\nhttps://www.atlasobscura.com/places/pedestrian-tunnel-the-deer-moat",
      "id": "deer-moat-pedestrian-tunnel",
      "img": [
        "./data/images/c8419ab8f850772648d41105c6257dccfd1f99c0a7426a2151353a87ca77e8f7.png"
      ],
      "name": "Deer Moat Pedestrian Tunnel"
    },
    "derby-arboretum-arboretum-park": {
      "category": "interesting-things",
      "coordinates": [
        -1.4722151,
        52.9105093
      ],
      "description": "The first public park in England. The landscaping was influential on the design of Central Park in New York some years later.",
      "id": "derby-arboretum-arboretum-park",
      "name": "Derby Arboretum (Arboretum Park)"
    },
    "derwent-pencil-museum": {
      "category": "museums-attractions",
      "coordinates": [
        -3.1419345,
        54.6038564
      ],
      "description": "Museum of pencil-making. Includes (supposedly) the world's largest pencil.",
      "id": "derwent-pencil-museum",
      "name": "Derwent Pencil Museum"
    },
    "deutsches-museum": {
      "category": "museums-attractions",
      "coordinates": [
        11.5834522,
        48.1298707
      ],
      "description": "The High Voltage demos are great!",
      "id": "deutsches-museum",
      "name": "Deutsches Museum"
    },
    "dia-beacon": {
      "category": "museums-attractions",
      "coordinates": [
        -73.9825664,
        41.5000753
      ],
      "description": "Modern art museum. Makes a lovely day (rail) trip from NY",
      "id": "dia-beacon",
      "name": "Dia Beacon"
    },
    "didcot-railway-centre": {
      "category": "museums-attractions",
      "coordinates": [
        -1.2426326,
        51.6109229
      ],
      "id": "didcot-railway-centre",
      "name": "Didcot Railway Centre"
    },
    "dig-an-archaeological-adventure": {
      "category": "museums-attractions",
      "coordinates": [
        -1.0780252,
        53.9595719
      ],
      "id": "dig-an-archaeological-adventure",
      "name": "DIG: An Archaeological Adventure"
    },
    "diggerland-kent": {
      "category": "museums-attractions",
      "coordinates": [
        0.4772161,
        51.3820713
      ],
      "description": "Unique cross of family theme park and plant hire. Damn good fun with JCBs. http://www.diggerland.com/",
      "id": "diggerland-kent",
      "name": "Diggerland Kent"
    },
    "din-tai-fung-xinyi-branch": {
      "category": "para-infrastructural-cultural",
      "coordinates": [
        121.530118,
        25.0335035
      ],
      "description": "original branch of dumpling chaing",
      "id": "din-tai-fung-xinyi-branch",
      "name": "Din Tai Fung Xinyi Branch"
    },
    "dinorwig-power-station": {
      "category": "interesting-things",
      "coordinates": [
        -4.113889,
        53.118611
      ],
      "id": "dinorwig-power-station",
      "name": "Dinorwig Power Station"
    },
    "discovery-museum": {
      "category": "museums-attractions",
      "coordinates": [
        -1.6244598,
        54.9694254
      ],
      "description": "Super awesome world's first steam turbine driven & fastest ship (c1894) in the Discovery Museum in Newcastle.",
      "id": "discovery-museum",
      "name": "Discovery Museum"
    },
    "distillerie-parfum-d-ylang-ng-nosy-be-madagascar": {
      "category": "museums-attractions",
      "coordinates": [
        48.2828891,
        -13.3603685
      ],
      "id": "distillerie-parfum-d-ylang-ng-nosy-be-madagascar",
      "name": "Distillerie Parfum d Ylang N.G. Nosy Be Madagascar"
    },
    "disused-massive-electricity-pylons": {
      "category": "interesting-things",
      "coordinates": [
        15.6509256,
        38.2658488
      ],
      "description": "Publicly climbable",
      "id": "disused-massive-electricity-pylons",
      "name": "Disused massive electricity pylons"
    },
    "dollands-moor-freight-yard": {
      "category": "not-open-to-public-but-visible",
      "coordinates": [
        1.0999262,
        51.0918586
      ],
      "description": "Freight yard used for freight going through the Channel Tunnel",
      "id": "dollands-moor-freight-yard",
      "name": "Dollands Moor Freight Yard"
    },
    "don-juan-pond": {
      "category": "nature",
      "coordinates": [
        161.1907728,
        -77.5618985
      ],
      "id": "don-juan-pond",
      "name": "Don Juan Pond"
    },
    "don-quijote-dotonbori": {
      "category": "museums-attractions",
      "coordinates": [
        135.5026443,
        34.6692979
      ],
      "description": "A night-time visit to Dotombori canal is essential. The Don Quijote in Dotonbori has the weirdest ferris wheel you'll ever see built into the facade. Some neat full-on Blade Runner views from the top.",
      "id": "don-quijote-dotonbori",
      "name": "Don Quijote Dotonbori"
    },
    "donald-c-tillman-water-reclamation-plant": {
      "category": "not-open-to-public-but-visible",
      "coordinates": [
        -118.4812791,
        34.1817985
      ],
      "id": "donald-c-tillman-water-reclamation-plant",
      "name": "Donald C Tillman Water Reclamation Plant"
    },
    "donner-memorial-state-museum": {
      "category": "museums-attractions",
      "coordinates": [
        -120.2321081,
        39.3241339
      ],
      "id": "donner-memorial-state-museum",
      "name": "Donner Memorial State Museum"
    },
    "donside-hydro": {
      "category": "interesting-things",
      "coordinates": [
        -2.1130884,
        57.176586
      ],
      "description": "Small community-owned hydro plant, with an archimedes screw turbine. You can also access the artificial island on the far side of the lade.\nhttps://acenergy.org.uk/",
      "id": "donside-hydro",
      "name": "Donside Hydro"
    },
    "dordoy-bazaar": {
      "category": "interesting-things",
      "coordinates": [
        74.6206932,
        42.9340179
      ],
      "description": "Vast market built mostly out of shipping containers. https://en.wikipedia.org/wiki/Dordoy_Bazaar",
      "id": "dordoy-bazaar",
      "name": "Dordoy Bazaar"
    },
    "dounreay-nuclear-power-station-viewing-platform": {
      "category": "interesting-things",
      "coordinates": [
        -3.7268972,
        58.5812506
      ],
      "id": "dounreay-nuclear-power-station-viewing-platform",
      "name": "Dounreay Nuclear Power Station Viewing Platform"
    },
    "dover-castle-and-tunnels": {
      "category": "museums-attractions",
      "coordinates": [
        1.3234552,
        51.1294413
      ],
      "description": "Dover Castle (fairly standard castle), but also the tunnels inside the White Cliffs which were used to control troop movements on D-Day (amongst other things).",
      "id": "dover-castle-and-tunnels",
      "name": "Dover Castle and Tunnels"
    },
    "dover-transport-museum": {
      "category": "museums-attractions",
      "coordinates": [
        1.2904581,
        51.1500609
      ],
      "id": "dover-transport-museum",
      "name": "Dover Transport Museum"
    },
    "dox-centre-for-contemporary-art": {
      "category": "museums-attractions",
      "coordinates": [
        14.4478283,
        50.1068153
      ],
      "description": "Ed: really nice contemporary art museum. Giant wooden airship on the roof. Best museum I visited in the city.",
      "id": "dox-centre-for-contemporary-art",
      "img": [
        "./data/images/9ebd25395b9e9920c9bdfa106287d03e8ac30a9dc3cbc209879c4071dfc83a15.png",
        "./data/images/0b0bb0aa60a0ab00a8fc972bfd1d3c20d84cc3acc823c4c7252db849f06a8202.png"
      ],
      "name": "DOX Centre for Contemporary Art"
    },
    "drammen-spiral": {
      "category": "historic-ruins-structures",
      "coordinates": [
        10.2008964,
        59.7521483
      ],
      "id": "drammen-spiral",
      "name": "Drammen Spiral"
    },
    "droitwich-heritage-information-centre": {
      "category": "museums-attractions",
      "coordinates": [
        -2.1502445,
        52.2665319
      ],
      "description": "Museum of the heritage of the Droitwich area. Particularly infrastructure-related exhibits include those on radio in the Droitwich area (the Radio 4 Long Wave transmitters are located here) and salt extraction in Droitwich.\n\nSee https://www.droitwichheritagecentre.org.uk/visit/",
      "id": "droitwich-heritage-information-centre",
      "name": "Droitwich Heritage & Information Centre"
    },
    "dsseldorf-airport-suspended-monorail": {
      "category": "interesting-things",
      "coordinates": [
        6.7661599,
        51.27869
      ],
      "description": "Home of north-west Germany's other, less famous, suspended monorail.",
      "id": "dsseldorf-airport-suspended-monorail",
      "name": "D\u00fcsseldorf Airport Suspended Monorail"
    },
    "dundee-museum-of-transport": {
      "category": "museums-attractions",
      "coordinates": [
        -2.9491916,
        56.4663299
      ],
      "id": "dundee-museum-of-transport",
      "name": "Dundee Museum of Transport"
    },
    "dundee-science-centre": {
      "category": "museums-attractions",
      "coordinates": [
        -2.9747332,
        56.4564569
      ],
      "id": "dundee-science-centre",
      "name": "Dundee Science Centre"
    },
    "dungeness-a-power-station": {
      "category": "not-open-to-public-but-visible",
      "coordinates": [
        0.9620281,
        50.9139676
      ],
      "description": "Now in decommissioning - a very obvious feature on the landscape though",
      "id": "dungeness-a-power-station",
      "name": "Dungeness A Power Station"
    },
    "dungeness-b-power-station": {
      "category": "not-open-to-public-but-visible",
      "coordinates": [
        0.9596944,
        50.9138436
      ],
      "description": "No public access - can be seen from all around Dungeness",
      "id": "dungeness-b-power-station",
      "name": "Dungeness B Power Station"
    },
    "dungeness-sound-mirrors": {
      "category": "historic-ruins-structures",
      "coordinates": [
        0.9540529,
        50.9564027
      ],
      "description": "Used before radar to hear aircraft approaching from a long way away.\n\nMakes a great day trip.\n\nOnly open on open days a few times a year.\n\nhttp://www.andrewgrantham.co.uk/soundmirrors/",
      "id": "dungeness-sound-mirrors",
      "name": "Dungeness Sound Mirrors"
    },
    "dunwich": {
      "category": "interesting-things",
      "coordinates": [
        1.6265635,
        52.2766935
      ],
      "description": "Formerly the 'Capital of East Anglia' (c. 1500) this Suffolk town was one of the most important UK sea ports. It was in the top 10 'largest places in England' and had a population of 3000. \n\nHowever, it has rapidly fallen into the sea (and continues to do so) with only a handful of houses and 120 residents remaining. Notable places to visit currently include the museum and 17th century traditional pub.\n\nIs a fascinating place to visit, so I would recommend going before it's all gone!",
      "id": "dunwich",
      "name": "Dunwich"
    },
    "dylan-thomas-writing-shed": {
      "category": "para-infrastructural-cultural",
      "coordinates": [
        -4.4571313,
        51.7718388
      ],
      "id": "dylan-thomas-writing-shed",
      "name": "Dylan Thomas Writing Shed"
    },
    "dynamic-earth": {
      "category": "museums-attractions",
      "coordinates": [
        -81.0337278,
        46.4741806
      ],
      "description": "Mining-focused science museum featuring an underground mine tour",
      "id": "dynamic-earth",
      "name": "Dynamic Earth"
    },
    "east-anglia-transport-museum": {
      "category": "museums-attractions",
      "coordinates": [
        1.6875115,
        52.452483
      ],
      "id": "east-anglia-transport-museum",
      "name": "East Anglia Transport Museum"
    },
    "east-anglian-railway-museum": {
      "category": "museums-attractions",
      "coordinates": [
        0.7587805,
        51.9260301
      ],
      "id": "east-anglian-railway-museum",
      "name": "East Anglian Railway Museum"
    },
    "east-midlands-aeropark": {
      "category": "museums-attractions",
      "coordinates": [
        -1.3476944,
        52.8323506
      ],
      "id": "east-midlands-aeropark",
      "name": "East Midlands Aeropark"
    },
    "ebr-1-experimental-breeder-reactor-museum": {
      "category": "interesting-things",
      "coordinates": [
        -113.0065625,
        43.5115625
      ],
      "description": "Experimental Breeder Reactor-I is the world's first breeder reactor. There's a very interesting railway on site, with a nuclear-shielded locomotive and double-wide 4-track railcars used to haul nuclear experiments.",
      "id": "ebr-1-experimental-breeder-reactor-museum",
      "name": "EBR-1 (Experimental Breeder Reactor) Museum"
    },
    "ecola-state-park": {
      "category": "nature",
      "coordinates": [
        -123.9736121,
        45.9195091
      ],
      "id": "ecola-state-park",
      "name": "Ecola State Park"
    },
    "eden-camp-modern-history-museum": {
      "category": "museums-attractions",
      "coordinates": [
        -0.778967,
        54.151129
      ],
      "id": "eden-camp-modern-history-museum",
      "name": "Eden Camp Modern History Museum"
    },
    "eden-project-cornwall": {
      "category": "museums-attractions",
      "coordinates": [
        -4.7435967,
        50.3605397
      ],
      "id": "eden-project-cornwall",
      "name": "Eden Project, Cornwall"
    },
    "eds-house-of-gems": {
      "category": "interesting-things",
      "coordinates": [
        -122.5833873,
        45.5502441
      ],
      "id": "eds-house-of-gems",
      "name": "Ed's House of Gems"
    },
    "effelsberg-100-m-radio-telescope": {
      "category": "interesting-things",
      "coordinates": [
        6.8836239,
        50.5248229
      ],
      "id": "effelsberg-100-m-radio-telescope",
      "name": "Effelsberg 100-m Radio Telescope"
    },
    "eggares-olive-oil-museum": {
      "category": "museums-attractions",
      "coordinates": [
        25.4358798,
        37.11758
      ],
      "id": "eggares-olive-oil-museum",
      "name": "Eggares Olive Oil Museum"
    },
    "el-muro-en-la-playa-tijuana": {
      "category": "para-infrastructural-cultural",
      "coordinates": [
        -117.1238816,
        32.534258
      ],
      "id": "el-muro-en-la-playa-tijuana",
      "name": "El Muro en la Playa, Tijuana"
    },
    "elblg-canal": {
      "category": "museums-attractions",
      "coordinates": [
        19.5942878,
        54.0270075
      ],
      "description": "Boats lifted out of water to go uphill instead of locks",
      "id": "elblg-canal",
      "name": "Elbl\u0105g Canal"
    },
    "elbphilharmonie-hamburg": {
      "category": "museums-attractions",
      "coordinates": [
        9.98445,
        53.5415754
      ],
      "description": "Ed: Free to go up to the viewing platform. Take a curved escalator on the way up.",
      "id": "elbphilharmonie-hamburg",
      "img": [
        "./data/images/6440b2bf90c954e4d2ee665cf1f4951d7bd7e93fb0a74081e2a61906edc3fcfc.png",
        "./data/images/036f0d0478b41d9bdb1aa958137f56cd304f70099b84d76eb6e4cc4ab8ad83e3.png",
        "./data/images/ef7ca30648b7139d579687572fc6cc80d482751286c78498bc60c4321bf6db89.png"
      ],
      "name": "Elbphilharmonie Hamburg"
    },
    "electric-brae": {
      "category": "interesting-things",
      "coordinates": [
        -4.7571873,
        55.3812294
      ],
      "description": "A 'gravity hill', where it looks like objects roll up hill. It's actually an optical illusion. Engraved stone marks the site and explains how it works.\n\nSee https://en.wikipedia.org/wiki/Electric_Brae",
      "id": "electric-brae",
      "name": "Electric Brae"
    },
    "electrical-railway-museum": {
      "category": "museums-attractions",
      "coordinates": [
        23.6428065,
        37.9480836
      ],
      "id": "electrical-railway-museum",
      "name": "Electrical Railway Museum"
    },
    "eling-tide-mill-experience": {
      "category": "museums-attractions",
      "coordinates": [
        -1.4822391,
        50.9110635
      ],
      "description": "Tide mill that still works and produces its own flour. Also a lovely walk around the mouth of the river - cross over the bridge going south, go through the car park and cemetery and follow the board walk around. All wheelchair accessible!",
      "id": "eling-tide-mill-experience",
      "name": "Eling Tide Mill Experience"
    },
    "ellsworth-storeys-tower": {
      "category": "museums-attractions",
      "coordinates": [
        -122.8311689,
        48.6775285
      ],
      "description": "Stone tower with outstanding views, built by the Civilian Conservation Corps.",
      "id": "ellsworth-storeys-tower",
      "name": "Ellsworth Storey's Tower"
    },
    "emley-moor-tower": {
      "category": "interesting-things",
      "coordinates": [
        -1.664438,
        53.6120456
      ],
      "description": "The tallest free standing building in the UK - the Emley Moor transmitting station http://en.wikipedia.org/wiki/Emley_Moor_transmitting_station",
      "id": "emley-moor-tower",
      "name": "Emley Moor Tower"
    },
    "enigma-museum-for-post-telecommunications-and-communication": {
      "category": "museums-attractions",
      "coordinates": [
        12.5748875,
        55.6998433
      ],
      "id": "enigma-museum-for-post-telecommunications-and-communication",
      "name": "Enigma Museum for post, telecommunications and communication"
    },
    "epping-signalling-museum": {
      "category": "historic-ruins-structures",
      "coordinates": [
        0.1120711,
        51.6916211
      ],
      "description": "Museum of London Underground signalling including restored signal cabin and a loco.\n\nDetails at https://www.ianvisits.co.uk/articles/a-new-railway-museum-has-opened-in-epping-61233/",
      "id": "epping-signalling-museum",
      "name": "Epping Signalling Museum"
    },
    "erasmusbrug": {
      "category": "interesting-things",
      "coordinates": [
        4.4871227,
        51.909004
      ],
      "description": "Iconic modern cable-stayed bridge",
      "id": "erasmusbrug",
      "name": "Erasmusbrug"
    },
    "ernest-f-coe-visitor-center": {
      "category": "nature",
      "coordinates": [
        -80.5830722,
        25.3953191
      ],
      "description": "Modest but good introduction to the Everglades.",
      "id": "ernest-f-coe-visitor-center",
      "name": "Ernest F. Coe Visitor Center"
    },
    "espace-67": {
      "category": "museums-attractions",
      "coordinates": [
        -73.5339496,
        45.5110457
      ],
      "description": "Park and museum. The main attraction is the huge biosphere you can walk around.\n\nMakes for a nice afternoon.",
      "id": "espace-67",
      "name": "Espace 67"
    },
    "estrella-warbird-museum": {
      "category": "museums-attractions",
      "coordinates": [
        -120.61963,
        35.6643153
      ],
      "id": "estrella-warbird-museum",
      "name": "Estrella Warbird Museum"
    },
    "euro-banknote-bridges": {
      "category": "historic-ruins-structures",
      "coordinates": [
        4.3405437,
        51.8497222
      ],
      "description": "The bridges shown on Euro bank notes were fictional, but in various European styles. An art project then actually built the bridges pictured.",
      "id": "euro-banknote-bridges",
      "name": "Euro Banknote Bridges"
    },
    "evel-knievel-jump-monument": {
      "category": "not-open-to-public-but-visible",
      "coordinates": [
        -114.4546548,
        42.5985385
      ],
      "id": "evel-knievel-jump-monument",
      "name": "Evel Knievel Jump Monument"
    },